{
"type": "FeatureCollection",
"name": "region_roman_20180822",
"crs": { "type": "name", "properties": { "name": "urn:ogc:def:crs:OGC:1.3:CRS84" } },
"features": [
{ "type": "Feature", "properties": { "Feature_ID": 13, "Feature_Type": "Region", "Title": "Greece", "Location Name": "Greece", "Latitude": 39.0742, "Longtitude": 21.8243 }, "geometry": { "type": "Point", "coordinates": [ 21.8243, 39.0742 ] } },
{ "type": "Feature", "properties": { "Feature_ID": 14, "Feature_Type": "Region", "Title": "Anatolia", "Location Name": "Anatolia", "Latitude": 38.9637, "Longtitude": 35.2433 }, "geometry": { "type": "Point", "coordinates": [ 35.2433, 38.9637 ] } },
{ "type": "Feature", "properties": { "Feature_ID": 15, "Feature_Type": "Region", "Title": "Egypt", "Location Name": "Egypt", "Latitude": 26.820611, "Longtitude": 30.8025 }, "geometry": { "type": "Point", "coordinates": [ 30.8025, 26.820611 ] } },
{ "type": "Feature", "properties": { "Feature_ID": 21, "Feature_Type": "Region", "Title": "Iran", "Location Name": "Iran", "Latitude": 32.2, "Longtitude": 54.2 }, "geometry": { "type": "Point", "coordinates": [ 54.2, 32.2 ] } },
{ "type": "Feature", "properties": { "Feature_ID": 215, "Feature_Type": "Region", "Title": "Gandhara", "Location Name": "Gandhara", "Latitude": 33.756, "Longtitude": 72.8291 }, "geometry": { "type": "Point", "coordinates": [ 72.8291, 33.756 ] } },
{ "type": "Feature", "properties": { "Feature_ID": 221, "Feature_Type": "Region", "Title": "India", "Location Name": "India", "Latitude": 21.0, "Longtitude": 78.0 }, "geometry": { "type": "Point", "coordinates": [ 78.0, 21.0 ] } },
{ "type": "Feature", "properties": { "Feature_ID": 233, "Feature_Type": "Region", "Title": "Parthia", "Location Name": "Parthia", "Latitude": 33.093611, "Longtitude": 44.580556 }, "geometry": { "type": "Point", "coordinates": [ 44.580556, 33.093611 ] } }
]
}
