{
"type": "FeatureCollection",
"name": "region_bronze_20171219",
"crs": { "type": "name", "properties": { "name": "urn:ogc:def:crs:OGC:1.3:CRS84" } },
"features": [
{ "type": "Feature", "properties": { "Feature_ID": 18, "Feature_Ty": "Region", "Title": "Philistia", "Coordinate": "Ashkelon, Israel", "Location N": "Philista", "Latitude": 31.666667, "Longtitude": 34.566667, "Descriptio": null }, "geometry": { "type": "Point", "coordinates": [ 34.566667, 31.666667 ] } },
{ "type": "Feature", "properties": { "Feature_ID": 13, "Feature_Ty": "Region", "Title": "Greece", "Coordinate": "Central Point", "Location N": "Greece", "Latitude": 39.0742, "Longtitude": 21.8243, "Descriptio": null }, "geometry": { "type": "Point", "coordinates": [ 21.8243, 39.0742 ] } },
{ "type": "Feature", "properties": { "Feature_ID": 14, "Feature_Ty": "Region", "Title": "Anatolia", "Coordinate": "Central Point", "Location N": "Anatolia", "Latitude": 38.9637, "Longtitude": 35.2433, "Descriptio": null }, "geometry": { "type": "Point", "coordinates": [ 35.2433, 38.9637 ] } },
{ "type": "Feature", "properties": { "Feature_ID": 15, "Feature_Ty": "Region", "Title": "Egypt", "Coordinate": "Central Point", "Location N": "Egypt", "Latitude": 26.820611, "Longtitude": 30.8025, "Descriptio": null }, "geometry": { "type": "Point", "coordinates": [ 30.8025, 26.820611 ] } },
{ "type": "Feature", "properties": { "Feature_ID": 16, "Feature_Ty": "Region", "Title": "Syria", "Coordinate": "Central Point", "Location N": "Syria", "Latitude": 34.8021, "Longtitude": 38.9968, "Descriptio": null }, "geometry": { "type": "Point", "coordinates": [ 38.9968, 34.8021 ] } },
{ "type": "Feature", "properties": { "Feature_ID": 19, "Feature_Ty": "Region", "Title": "Mesopotamia", "Coordinate": "Central Point", "Location N": "Mesopotamia", "Latitude": 34.5338, "Longtitude": 43.4837, "Descriptio": null }, "geometry": { "type": "Point", "coordinates": [ 43.4837, 34.5338 ] } },
{ "type": "Feature", "properties": { "Feature_ID": 132, "Feature_Ty": "Region", "Title": "Boeotia", "Coordinate": "Thebes", "Location N": "Boeotia", "Latitude": 38.32258, "Longtitude": 23.32043, "Descriptio": null }, "geometry": { "type": "Point", "coordinates": [ 23.32043, 38.32258 ] } },
{ "type": "Feature", "properties": { "Feature_ID": 17, "Feature_Ty": "Region", "Title": "Levant", "Coordinate": null, "Location N": "Levant", "Latitude": null, "Longtitude": null, "Descriptio": null }, "geometry": null },
{ "type": "Feature", "properties": { "Feature_ID": 133, "Feature_Ty": "Region", "Title": "Cyprus", "Coordinate": null, "Location N": "Cyprus", "Latitude": 35.16746, "Longtitude": 33.36689, "Descriptio": null }, "geometry": { "type": "Point", "coordinates": [ 33.36689, 35.16746 ] } }
]
}
